{
  "meta": {
    "version": "1.0.0",
    "generated": "2026-04-16",
    "description": "India tourist map data for NakshIQ autoposter",
    "total_states": 28,
    "total_uts": 8,
    "coordinate_format": "[latitude, longitude]"
  },
  "states": [
    {
      "name": "Himachal Pradesh",
      "short_code": "HP",
      "region": "north",
      "tagline": "Altitude adjusts every assumption",
      "boundary": [
        [33.2, 75.8], [33.0, 76.3], [32.8, 76.8], [32.5, 77.3], [32.2, 77.6],
        [31.8, 78.0], [31.5, 78.4], [31.2, 78.8], [31.0, 78.6], [30.8, 78.0],
        [30.9, 77.5], [31.0, 77.0], [31.2, 76.8], [31.4, 76.4], [31.5, 76.0],
        [31.8, 75.8], [32.2, 75.6], [32.5, 75.5], [32.8, 75.6], [33.0, 75.7],
        [33.2, 75.8]
      ],
      "neighbors": [
        { "name": "Jammu & Kashmir", "position": [33.5, 76.5] },
        { "name": "Ladakh", "position": [33.5, 77.5] },
        { "name": "Punjab", "position": [31.5, 75.3] },
        { "name": "Haryana", "position": [30.5, 76.8] },
        { "name": "Uttarakhand", "position": [30.5, 78.5] },
        { "name": "Tibet (China)", "position": [32.5, 79.0] }
      ],
      "landmarks": [
        { "name": "Shimla", "lat": 31.1048, "lng": 77.1734, "type": "hill_station", "label": "Shimla" },
        { "name": "Manali", "lat": 32.2396, "lng": 77.1887, "type": "hill_station", "label": "Manali" },
        { "name": "Dharamshala", "lat": 32.2190, "lng": 76.3234, "type": "city", "label": "Dharamshala" },
        { "name": "Spiti Valley", "lat": 32.2460, "lng": 78.0350, "type": "valley", "label": "Spiti" },
        { "name": "Rohtang Pass", "lat": 32.3722, "lng": 77.2478, "type": "pass", "label": "Rohtang" },
        { "name": "Kullu", "lat": 31.9579, "lng": 77.1095, "type": "valley", "label": "Kullu" },
        { "name": "Dalhousie", "lat": 32.5373, "lng": 75.9708, "type": "hill_station", "label": "Dalhousie" },
        { "name": "Kasol", "lat": 32.0100, "lng": 77.3142, "type": "valley", "label": "Kasol" },
        { "name": "Great Himalayan National Park", "lat": 31.7600, "lng": 77.4500, "type": "national_park", "label": "GHNP" },
        { "name": "Kinnaur Kailash", "lat": 31.7000, "lng": 78.2800, "type": "mountain", "label": "Kinnaur" },
        { "name": "Chamba", "lat": 32.5534, "lng": 76.1258, "type": "city", "label": "Chamba" },
        { "name": "Triund", "lat": 32.2500, "lng": 76.3400, "type": "mountain", "label": "Triund" }
      ],
      "rivers": [
        { "name": "Beas", "path": [[32.4, 77.2], [32.0, 77.1], [31.6, 76.8], [31.2, 76.5]] },
        { "name": "Sutlej", "path": [[31.9, 78.8], [31.5, 78.0], [31.2, 77.2], [31.0, 76.8]] },
        { "name": "Ravi", "path": [[32.8, 76.5], [32.5, 76.1], [32.2, 75.9]] },
        { "name": "Chenab", "path": [[33.0, 76.8], [32.6, 76.2], [32.3, 75.9]] },
        { "name": "Spiti River", "path": [[32.6, 78.2], [32.3, 78.0], [31.8, 77.8]] }
      ]
    },
    {
      "name": "Rajasthan",
      "short_code": "RJ",
      "region": "west",
      "tagline": "Desert scores highest in winter",
      "boundary": [
        [30.2, 69.5], [30.0, 70.5], [29.5, 71.5], [28.5, 71.0], [27.5, 70.0],
        [26.5, 69.5], [25.5, 69.8], [24.5, 70.2], [24.0, 71.0], [23.5, 72.0],
        [23.8, 73.0], [24.0, 74.0], [24.5, 75.0], [25.0, 76.0], [25.5, 76.5],
        [26.0, 77.0], [26.5, 77.5], [27.0, 77.5], [27.5, 77.0], [28.0, 76.8],
        [28.5, 76.5], [29.0, 76.0], [29.5, 75.5], [30.0, 74.5], [30.2, 73.5],
        [30.3, 72.5], [30.3, 71.5], [30.2, 70.5], [30.2, 69.5]
      ],
      "neighbors": [
        { "name": "Punjab", "position": [30.5, 74.0] },
        { "name": "Haryana", "position": [29.5, 76.5] },
        { "name": "Uttar Pradesh", "position": [27.5, 78.0] },
        { "name": "Madhya Pradesh", "position": [24.0, 76.0] },
        { "name": "Gujarat", "position": [23.5, 71.0] },
        { "name": "Pakistan", "position": [27.0, 69.0] }
      ],
      "landmarks": [
        { "name": "Jaipur", "lat": 26.9124, "lng": 75.7873, "type": "city", "label": "Jaipur" },
        { "name": "Udaipur", "lat": 24.5854, "lng": 73.7125, "type": "city", "label": "Udaipur" },
        { "name": "Jodhpur", "lat": 26.2389, "lng": 73.0243, "type": "city", "label": "Jodhpur" },
        { "name": "Jaisalmer", "lat": 26.9157, "lng": 70.9083, "type": "desert", "label": "Jaisalmer" },
        { "name": "Pushkar", "lat": 26.4898, "lng": 74.5511, "type": "lake", "label": "Pushkar" },
        { "name": "Mehrangarh Fort", "lat": 26.2981, "lng": 73.0187, "type": "fort", "label": "Mehrangarh" },
        { "name": "Amber Fort", "lat": 27.18, "lng": 75.85, "type": "fort", "label": "Amber Fort" },
        { "name": "Ranthambore National Park", "lat": 26.0173, "lng": 76.5026, "type": "national_park", "label": "Ranthambore" },
        { "name": "Chittorgarh Fort", "lat": 24.8879, "lng": 74.6453, "type": "fort", "label": "Chittorgarh" },
        { "name": "Mount Abu", "lat": 24.5925, "lng": 72.7156, "type": "hill_station", "label": "Mount Abu" },
        { "name": "Thar Desert", "lat": 27.0, "lng": 71.0, "type": "desert", "label": "Thar" }
      ],
      "rivers": [
        { "name": "Chambal", "path": [[26.5, 77.5], [25.5, 76.5], [25.0, 76.0], [24.5, 75.5]] },
        { "name": "Luni", "path": [[26.5, 74.5], [26.0, 73.5], [25.5, 72.0], [25.0, 71.0]] },
        { "name": "Banas", "path": [[25.5, 74.0], [25.8, 74.8], [26.0, 75.5]] }
      ]
    },
    {
      "name": "Kerala",
      "short_code": "KL",
      "region": "south",
      "tagline": "Monsoon is the main event",
      "boundary": [
        [12.8, 75.0], [12.5, 75.2], [12.2, 75.3], [11.8, 75.5], [11.5, 75.7],
        [11.2, 75.8], [10.8, 76.0], [10.5, 76.2], [10.2, 76.3], [9.8, 76.4],
        [9.5, 76.4], [9.0, 76.6], [8.5, 76.9], [8.3, 77.0], [8.5, 77.2],
        [9.0, 77.1], [9.5, 77.0], [10.0, 76.8], [10.5, 76.6], [11.0, 76.4],
        [11.5, 76.2], [12.0, 75.8], [12.5, 75.5], [12.8, 75.0]
      ],
      "neighbors": [
        { "name": "Karnataka", "position": [12.5, 75.8] },
        { "name": "Tamil Nadu", "position": [10.0, 77.3] },
        { "name": "Arabian Sea", "position": [10.0, 75.5] }
      ],
      "landmarks": [
        { "name": "Kochi", "lat": 9.9312, "lng": 76.2673, "type": "city", "label": "Kochi" },
        { "name": "Munnar", "lat": 10.0889, "lng": 77.0595, "type": "hill_station", "label": "Munnar" },
        { "name": "Alleppey (Alappuzha)", "lat": 9.4981, "lng": 76.3388, "type": "lake", "label": "Alleppey" },
        { "name": "Thiruvananthapuram", "lat": 8.5241, "lng": 76.9366, "type": "city", "label": "Trivandrum" },
        { "name": "Varkala", "lat": 8.7333, "lng": 76.7167, "type": "beach", "label": "Varkala" },
        { "name": "Wayanad", "lat": 11.6854, "lng": 76.1320, "type": "wildlife", "label": "Wayanad" },
        { "name": "Kovalam", "lat": 8.3988, "lng": 76.9785, "type": "beach", "label": "Kovalam" },
        { "name": "Periyar National Park", "lat": 9.4680, "lng": 77.1600, "type": "national_park", "label": "Periyar" },
        { "name": "Kumarakom", "lat": 9.5919, "lng": 76.4294, "type": "lake", "label": "Kumarakom" },
        { "name": "Bekal Fort", "lat": 12.3905, "lng": 75.0325, "type": "fort", "label": "Bekal" },
        { "name": "Athirappilly Falls", "lat": 10.2856, "lng": 76.5697, "type": "waterfall", "label": "Athirappilly" },
        { "name": "Fort Kochi", "lat": 9.9639, "lng": 76.2426, "type": "monument", "label": "Fort Kochi" }
      ],
      "rivers": [
        { "name": "Periyar", "path": [[10.2, 77.1], [9.9, 76.6], [9.8, 76.3]] },
        { "name": "Bharathapuzha", "path": [[10.8, 76.5], [10.6, 76.2], [10.4, 76.0]] },
        { "name": "Pamba", "path": [[9.5, 77.0], [9.4, 76.6], [9.3, 76.4]] }
      ]
    },
    {
      "name": "Goa",
      "short_code": "GA",
      "region": "west",
      "tagline": "Latitude where India exhales",
      "boundary": [
        [15.8, 73.7], [15.7, 73.9], [15.5, 74.1], [15.3, 74.2], [15.1, 74.3],
        [14.9, 74.3], [14.9, 74.1], [14.9, 73.9], [15.0, 73.7], [15.1, 73.7],
        [15.2, 73.7], [15.4, 73.7], [15.6, 73.7], [15.8, 73.7]
      ],
      "neighbors": [
        { "name": "Maharashtra", "position": [15.9, 74.0] },
        { "name": "Karnataka", "position": [14.7, 74.2] },
        { "name": "Arabian Sea", "position": [15.3, 73.5] }
      ],
      "landmarks": [
        { "name": "Panaji", "lat": 15.4909, "lng": 73.8278, "type": "city", "label": "Panaji" },
        { "name": "Basilica of Bom Jesus", "lat": 15.5009, "lng": 73.9116, "type": "monument", "label": "Bom Jesus" },
        { "name": "Calangute Beach", "lat": 15.5449, "lng": 73.7554, "type": "beach", "label": "Calangute" },
        { "name": "Aguada Fort", "lat": 15.4922, "lng": 73.7736, "type": "fort", "label": "Aguada" },
        { "name": "Palolem Beach", "lat": 15.0100, "lng": 74.0230, "type": "beach", "label": "Palolem" },
        { "name": "Dudhsagar Falls", "lat": 15.3144, "lng": 74.3143, "type": "waterfall", "label": "Dudhsagar" },
        { "name": "Anjuna Beach", "lat": 15.5734, "lng": 73.7413, "type": "beach", "label": "Anjuna" },
        { "name": "Se Cathedral", "lat": 15.5037, "lng": 73.9127, "type": "monument", "label": "Se Cathedral" },
        { "name": "Chapora Fort", "lat": 15.6105, "lng": 73.7408, "type": "fort", "label": "Chapora" },
        { "name": "Bhagwan Mahavir Wildlife Sanctuary", "lat": 15.3500, "lng": 74.2700, "type": "wildlife", "label": "Mahavir WLS" },
        { "name": "Arambol Beach", "lat": 15.6866, "lng": 73.7046, "type": "beach", "label": "Arambol" },
        { "name": "Margao", "lat": 15.2832, "lng": 73.9862, "type": "city", "label": "Margao" }
      ],
      "rivers": [
        { "name": "Mandovi", "path": [[15.6, 74.2], [15.5, 73.9], [15.5, 73.8]] },
        { "name": "Zuari", "path": [[15.4, 74.2], [15.3, 74.0], [15.3, 73.8]] }
      ]
    },
    {
      "name": "Uttarakhand",
      "short_code": "UK",
      "region": "north",
      "tagline": "Elevation is the only religion",
      "boundary": [
        [31.4, 77.6], [31.2, 78.0], [30.8, 78.5], [30.5, 79.0], [30.2, 79.5],
        [30.0, 80.0], [29.8, 80.2], [29.5, 80.1], [29.2, 80.0], [29.0, 79.5],
        [28.8, 79.0], [29.0, 78.5], [29.2, 78.0], [29.5, 77.6], [29.8, 77.5],
        [30.0, 77.4], [30.3, 77.5], [30.5, 77.7], [30.8, 77.8], [31.0, 77.7],
        [31.2, 77.6], [31.4, 77.6]
      ],
      "neighbors": [
        { "name": "Himachal Pradesh", "position": [31.5, 77.3] },
        { "name": "Uttar Pradesh", "position": [28.5, 79.0] },
        { "name": "Tibet (China)", "position": [31.0, 79.5] },
        { "name": "Nepal", "position": [29.0, 80.5] }
      ],
      "landmarks": [
        { "name": "Dehradun", "lat": 30.3165, "lng": 78.0322, "type": "city", "label": "Dehradun" },
        { "name": "Rishikesh", "lat": 30.0869, "lng": 78.2676, "type": "city", "label": "Rishikesh" },
        { "name": "Haridwar", "lat": 29.9457, "lng": 78.1642, "type": "temple", "label": "Haridwar" },
        { "name": "Nainital", "lat": 29.3919, "lng": 79.4542, "type": "hill_station", "label": "Nainital" },
        { "name": "Mussoorie", "lat": 30.4598, "lng": 78.0644, "type": "hill_station", "label": "Mussoorie" },
        { "name": "Kedarnath", "lat": 30.7346, "lng": 79.0669, "type": "temple", "label": "Kedarnath" },
        { "name": "Badrinath", "lat": 30.7433, "lng": 79.4938, "type": "temple", "label": "Badrinath" },
        { "name": "Valley of Flowers", "lat": 30.7280, "lng": 79.6050, "type": "valley", "label": "Valley of Flowers" },
        { "name": "Jim Corbett National Park", "lat": 29.5300, "lng": 78.7747, "type": "national_park", "label": "Corbett" },
        { "name": "Auli", "lat": 30.5272, "lng": 79.5660, "type": "hill_station", "label": "Auli" },
        { "name": "Chopta", "lat": 30.5000, "lng": 79.2200, "type": "mountain", "label": "Chopta" },
        { "name": "Nanda Devi", "lat": 30.3710, "lng": 79.9742, "type": "mountain", "label": "Nanda Devi" }
      ],
      "rivers": [
        { "name": "Ganga", "path": [[30.9, 79.1], [30.1, 78.3], [29.9, 78.2]] },
        { "name": "Yamuna", "path": [[31.0, 78.5], [30.5, 78.0], [30.0, 77.7]] },
        { "name": "Alaknanda", "path": [[30.7, 79.5], [30.4, 79.2], [30.1, 78.8]] },
        { "name": "Mandakini", "path": [[30.7, 79.1], [30.5, 79.0], [30.2, 78.8]] }
      ]
    },
    {
      "name": "Karnataka",
      "short_code": "KA",
      "region": "south",
      "tagline": "Stone, coffee, and code",
      "boundary": [
        [18.0, 74.5], [17.5, 75.0], [17.0, 76.0], [16.5, 77.0], [16.0, 77.5],
        [15.5, 77.5], [15.0, 77.5], [14.5, 77.5], [14.0, 77.8], [13.5, 77.8],
        [13.0, 77.8], [12.5, 78.0], [12.0, 77.8], [11.8, 77.5], [11.7, 77.0],
        [11.8, 76.5], [12.0, 76.0], [12.2, 75.5], [12.5, 75.0], [12.8, 74.8],
        [13.2, 74.7], [13.5, 74.6], [14.0, 74.5], [14.5, 74.3], [15.0, 74.2],
        [15.5, 74.1], [16.0, 74.2], [16.5, 74.4], [17.0, 74.5], [17.5, 74.5],
        [18.0, 74.5]
      ],
      "neighbors": [
        { "name": "Goa", "position": [15.5, 74.0] },
        { "name": "Maharashtra", "position": [17.5, 74.0] },
        { "name": "Telangana", "position": [17.0, 77.5] },
        { "name": "Andhra Pradesh", "position": [15.0, 78.0] },
        { "name": "Tamil Nadu", "position": [12.0, 78.0] },
        { "name": "Kerala", "position": [12.0, 75.5] },
        { "name": "Arabian Sea", "position": [13.5, 74.0] }
      ],
      "landmarks": [
        { "name": "Bengaluru", "lat": 12.9716, "lng": 77.5946, "type": "city", "label": "Bengaluru" },
        { "name": "Mysuru", "lat": 12.2958, "lng": 76.6394, "type": "palace", "label": "Mysuru" },
        { "name": "Hampi", "lat": 15.3350, "lng": 76.4600, "type": "monument", "label": "Hampi" },
        { "name": "Coorg (Kodagu)", "lat": 12.3375, "lng": 75.8069, "type": "hill_station", "label": "Coorg" },
        { "name": "Gokarna", "lat": 14.5479, "lng": 74.3188, "type": "beach", "label": "Gokarna" },
        { "name": "Badami Caves", "lat": 15.9180, "lng": 75.6810, "type": "monument", "label": "Badami" },
        { "name": "Jog Falls", "lat": 14.2295, "lng": 74.8127, "type": "waterfall", "label": "Jog Falls" },
        { "name": "Bandipur National Park", "lat": 11.6689, "lng": 76.6344, "type": "national_park", "label": "Bandipur" },
        { "name": "Pattadakal", "lat": 15.9485, "lng": 75.8168, "type": "monument", "label": "Pattadakal" },
        { "name": "Chikkamagaluru", "lat": 13.3161, "lng": 75.7720, "type": "hill_station", "label": "Chikmagalur" },
        { "name": "Udupi", "lat": 13.3409, "lng": 74.7421, "type": "temple", "label": "Udupi" },
        { "name": "Nagarhole National Park", "lat": 12.0700, "lng": 76.1500, "type": "national_park", "label": "Nagarhole" }
      ],
      "rivers": [
        { "name": "Kaveri", "path": [[12.4, 75.9], [12.3, 76.6], [12.0, 77.2], [11.8, 77.6]] },
        { "name": "Krishna", "path": [[16.0, 74.5], [16.2, 75.5], [16.5, 76.5], [16.7, 77.5]] },
        { "name": "Tungabhadra", "path": [[15.3, 76.5], [15.8, 76.0], [16.0, 75.5]] },
        { "name": "Sharavathi", "path": [[14.2, 74.8], [14.0, 75.0], [13.8, 75.2]] }
      ]
    },
    {
      "name": "Andhra Pradesh",
      "short_code": "AP",
      "region": "south",
      "tagline": "Coastline longer than patience",
      "boundary": [
        [19.0, 78.5], [18.5, 79.0], [18.0, 79.5], [17.5, 80.0], [17.0, 80.5],
        [16.5, 81.0], [16.0, 81.3], [15.5, 80.5], [15.0, 80.0], [14.5, 79.8],
        [14.0, 79.8], [13.5, 79.5], [13.5, 79.2], [14.0, 78.8], [14.5, 78.5],
        [15.0, 78.0], [15.5, 77.5], [16.0, 77.5], [16.5, 77.5], [17.0, 77.5],
        [17.5, 78.0], [18.0, 78.0], [18.5, 78.2], [19.0, 78.5]
      ],
      "neighbors": [
        { "name": "Telangana", "position": [18.5, 78.0] },
        { "name": "Karnataka", "position": [15.0, 77.0] },
        { "name": "Tamil Nadu", "position": [13.5, 79.0] },
        { "name": "Odisha", "position": [19.0, 80.0] },
        { "name": "Bay of Bengal", "position": [15.5, 81.5] }
      ],
      "landmarks": [
        { "name": "Tirupati (Tirumala)", "lat": 13.6833, "lng": 79.3470, "type": "temple", "label": "Tirupati" },
        { "name": "Visakhapatnam", "lat": 17.6868, "lng": 83.2185, "type": "city", "label": "Vizag" },
        { "name": "Amaravati", "lat": 16.5131, "lng": 80.5160, "type": "city", "label": "Amaravati" },
        { "name": "Araku Valley", "lat": 18.3273, "lng": 82.8756, "type": "valley", "label": "Araku" },
        { "name": "Srisailam", "lat": 15.8507, "lng": 78.8682, "type": "temple", "label": "Srisailam" },
        { "name": "Lepakshi", "lat": 15.4833, "lng": 77.6053, "type": "temple", "label": "Lepakshi" },
        { "name": "Borra Caves", "lat": 18.2814, "lng": 83.0375, "type": "monument", "label": "Borra Caves" },
        { "name": "Konaseema", "lat": 16.9000, "lng": 81.7000, "type": "lake", "label": "Konaseema" }
      ],
      "rivers": [
        { "name": "Godavari", "path": [[18.5, 79.5], [17.5, 80.5], [16.9, 81.5]] },
        { "name": "Krishna", "path": [[16.5, 78.5], [16.0, 79.5], [15.9, 80.5]] },
        { "name": "Pennar", "path": [[15.5, 78.0], [15.2, 79.0], [14.6, 79.8]] }
      ]
    },
    {
      "name": "Arunachal Pradesh",
      "short_code": "AR",
      "region": "northeast",
      "tagline": "First sunrise, least footfall",
      "boundary": [
        [29.4, 91.5], [29.0, 92.5], [28.5, 93.5], [28.2, 94.5], [28.0, 95.5],
        [27.5, 96.5], [27.0, 97.0], [27.0, 96.0], [27.2, 95.0], [27.5, 94.0],
        [27.5, 93.5], [27.0, 93.0], [26.8, 92.5], [27.0, 92.0], [27.5, 91.5],
        [28.0, 91.5], [28.5, 91.5], [29.0, 91.5], [29.4, 91.5]
      ],
      "neighbors": [
        { "name": "Assam", "position": [26.5, 93.0] },
        { "name": "Nagaland", "position": [26.5, 95.0] },
        { "name": "Tibet (China)", "position": [29.5, 94.0] },
        { "name": "Myanmar", "position": [27.0, 97.5] },
        { "name": "Bhutan", "position": [28.5, 91.0] }
      ],
      "landmarks": [
        { "name": "Tawang Monastery", "lat": 27.5860, "lng": 91.8594, "type": "monastery", "label": "Tawang" },
        { "name": "Ziro Valley", "lat": 27.5383, "lng": 93.8310, "type": "valley", "label": "Ziro" },
        { "name": "Sela Pass", "lat": 27.5062, "lng": 92.1043, "type": "pass", "label": "Sela Pass" },
        { "name": "Itanagar", "lat": 27.0844, "lng": 93.6053, "type": "city", "label": "Itanagar" },
        { "name": "Namdapha National Park", "lat": 27.4900, "lng": 96.3800, "type": "national_park", "label": "Namdapha" },
        { "name": "Bomdila", "lat": 27.2647, "lng": 92.4230, "type": "hill_station", "label": "Bomdila" },
        { "name": "Mechuka", "lat": 28.6200, "lng": 94.1500, "type": "valley", "label": "Mechuka" },
        { "name": "Pasighat", "lat": 28.0667, "lng": 95.3333, "type": "city", "label": "Pasighat" }
      ],
      "rivers": [
        { "name": "Brahmaputra (Siang)", "path": [[29.0, 94.8], [28.5, 95.0], [28.0, 95.2], [27.5, 95.0]] },
        { "name": "Kameng", "path": [[27.5, 92.0], [27.0, 92.5], [26.8, 92.8]] },
        { "name": "Subansiri", "path": [[28.5, 93.5], [27.8, 93.8], [27.2, 94.0]] }
      ]
    },
    {
      "name": "Assam",
      "short_code": "AS",
      "region": "northeast",
      "tagline": "River wide, tea deeper",
      "boundary": [
        [27.2, 89.7], [27.0, 90.5], [26.8, 91.5], [26.5, 92.5], [26.2, 93.5],
        [26.0, 94.5], [25.8, 95.0], [25.5, 95.5], [25.2, 95.0], [25.0, 94.5],
        [24.8, 93.5], [25.0, 92.5], [25.2, 92.0], [25.5, 91.5], [25.8, 91.0],
        [26.0, 90.5], [26.3, 90.0], [26.5, 89.8], [26.8, 89.7], [27.2, 89.7]
      ],
      "neighbors": [
        { "name": "Arunachal Pradesh", "position": [27.5, 93.5] },
        { "name": "Nagaland", "position": [26.0, 95.5] },
        { "name": "Manipur", "position": [25.0, 94.5] },
        { "name": "Mizoram", "position": [24.5, 93.0] },
        { "name": "Tripura", "position": [24.0, 92.0] },
        { "name": "Meghalaya", "position": [25.5, 91.0] },
        { "name": "West Bengal", "position": [26.5, 89.5] },
        { "name": "Bhutan", "position": [27.5, 90.0] }
      ],
      "landmarks": [
        { "name": "Kaziranga National Park", "lat": 26.5775, "lng": 93.1711, "type": "national_park", "label": "Kaziranga" },
        { "name": "Guwahati", "lat": 26.1445, "lng": 91.7362, "type": "city", "label": "Guwahati" },
        { "name": "Kamakhya Temple", "lat": 26.1664, "lng": 91.7058, "type": "temple", "label": "Kamakhya" },
        { "name": "Majuli Island", "lat": 26.9500, "lng": 94.1700, "type": "island", "label": "Majuli" },
        { "name": "Manas National Park", "lat": 26.6590, "lng": 91.0000, "type": "national_park", "label": "Manas" },
        { "name": "Sivasagar", "lat": 26.9840, "lng": 94.6380, "type": "monument", "label": "Sivasagar" },
        { "name": "Jorhat", "lat": 26.7509, "lng": 94.2037, "type": "city", "label": "Jorhat" },
        { "name": "Dibrugarh", "lat": 27.4728, "lng": 94.9120, "type": "city", "label": "Dibrugarh" }
      ],
      "rivers": [
        { "name": "Brahmaputra", "path": [[27.0, 89.8], [26.5, 91.0], [26.2, 92.5], [26.0, 94.0], [26.5, 95.0]] },
        { "name": "Barak", "path": [[25.0, 93.0], [24.8, 92.5], [24.5, 92.0]] }
      ]
    },
    {
      "name": "Bihar",
      "short_code": "BR",
      "region": "east",
      "tagline": "Where knowledge was first exported",
      "boundary": [
        [27.5, 83.5], [27.2, 84.0], [26.8, 84.5], [26.5, 85.0], [26.2, 86.0],
        [25.8, 87.0], [25.5, 87.5], [25.0, 87.0], [24.5, 86.5], [24.0, 86.0],
        [24.0, 85.5], [24.0, 85.0], [24.2, 84.5], [24.5, 84.0], [25.0, 83.5],
        [25.5, 83.5], [26.0, 83.5], [26.5, 83.5], [27.0, 83.5], [27.5, 83.5]
      ],
      "neighbors": [
        { "name": "Uttar Pradesh", "position": [26.0, 83.0] },
        { "name": "Jharkhand", "position": [23.5, 85.5] },
        { "name": "West Bengal", "position": [25.0, 87.8] },
        { "name": "Nepal", "position": [27.8, 85.0] }
      ],
      "landmarks": [
        { "name": "Bodh Gaya", "lat": 24.6961, "lng": 84.9869, "type": "temple", "label": "Bodh Gaya" },
        { "name": "Nalanda", "lat": 25.1367, "lng": 85.4430, "type": "monument", "label": "Nalanda" },
        { "name": "Patna", "lat": 25.6093, "lng": 85.1376, "type": "city", "label": "Patna" },
        { "name": "Rajgir", "lat": 25.0282, "lng": 85.4187, "type": "monument", "label": "Rajgir" },
        { "name": "Vaishali", "lat": 25.9843, "lng": 85.1307, "type": "monument", "label": "Vaishali" },
        { "name": "Mahabodhi Temple", "lat": 24.6952, "lng": 84.9913, "type": "temple", "label": "Mahabodhi" },
        { "name": "Vikramshila", "lat": 25.3200, "lng": 87.2800, "type": "monument", "label": "Vikramshila" },
        { "name": "Valmiki National Park", "lat": 27.3500, "lng": 83.9500, "type": "national_park", "label": "Valmiki" }
      ],
      "rivers": [
        { "name": "Ganga", "path": [[25.5, 83.5], [25.6, 84.5], [25.6, 85.5], [25.5, 86.5], [25.3, 87.0]] },
        { "name": "Son", "path": [[25.0, 84.0], [25.3, 84.5], [25.5, 85.0]] },
        { "name": "Gandak", "path": [[27.0, 84.0], [26.5, 84.5], [25.8, 85.0]] }
      ]
    },
    {
      "name": "Chhattisgarh",
      "short_code": "CG",
      "region": "central",
      "tagline": "Forest floor, not forest cover",
      "boundary": [
        [24.0, 80.5], [24.0, 81.5], [23.5, 82.5], [23.0, 83.5], [22.5, 83.5],
        [22.0, 83.5], [21.5, 83.0], [21.0, 82.5], [20.5, 82.0], [20.0, 81.5],
        [19.5, 81.0], [19.5, 80.5], [20.0, 80.0], [20.5, 80.0], [21.0, 80.5],
        [21.5, 80.8], [22.0, 81.0], [22.5, 81.0], [23.0, 80.5], [23.5, 80.5],
        [24.0, 80.5]
      ],
      "neighbors": [
        { "name": "Madhya Pradesh", "position": [23.5, 80.0] },
        { "name": "Uttar Pradesh", "position": [24.5, 81.0] },
        { "name": "Jharkhand", "position": [23.5, 84.0] },
        { "name": "Odisha", "position": [21.0, 83.5] },
        { "name": "Telangana", "position": [19.5, 80.0] },
        { "name": "Maharashtra", "position": [20.0, 79.5] }
      ],
      "landmarks": [
        { "name": "Raipur", "lat": 21.2514, "lng": 81.6296, "type": "city", "label": "Raipur" },
        { "name": "Chitrakote Falls", "lat": 19.2065, "lng": 81.7000, "type": "waterfall", "label": "Chitrakote" },
        { "name": "Barnawapara Wildlife Sanctuary", "lat": 21.4000, "lng": 82.4000, "type": "wildlife", "label": "Barnawapara" },
        { "name": "Tirathgarh Falls", "lat": 19.0200, "lng": 81.8500, "type": "waterfall", "label": "Tirathgarh" },
        { "name": "Indravati National Park", "lat": 19.1800, "lng": 80.8500, "type": "national_park", "label": "Indravati" },
        { "name": "Bhoramdeo Temple", "lat": 22.2000, "lng": 81.1000, "type": "temple", "label": "Bhoramdeo" },
        { "name": "Jagdalpur", "lat": 19.0785, "lng": 82.0195, "type": "city", "label": "Jagdalpur" },
        { "name": "Sirpur", "lat": 21.3500, "lng": 82.1900, "type": "monument", "label": "Sirpur" }
      ],
      "rivers": [
        { "name": "Mahanadi", "path": [[22.0, 81.5], [21.5, 82.0], [21.0, 82.5]] },
        { "name": "Indravati", "path": [[19.5, 80.5], [19.2, 81.5], [19.0, 82.0]] },
        { "name": "Sheonath", "path": [[22.5, 81.0], [22.0, 81.5], [21.5, 81.8]] }
      ]
    },
    {
      "name": "Gujarat",
      "short_code": "GJ",
      "region": "west",
      "tagline": "Commerce never took a holiday",
      "boundary": [
        [24.5, 68.5], [24.0, 69.0], [23.5, 69.5], [23.0, 69.0], [22.5, 69.0],
        [22.0, 69.0], [21.5, 69.5], [21.0, 70.0], [20.5, 71.0], [20.2, 72.0],
        [20.5, 72.5], [21.0, 72.5], [21.5, 72.5], [22.0, 73.0], [22.5, 73.0],
        [23.0, 73.0], [23.5, 72.5], [24.0, 72.5], [24.5, 72.5], [24.5, 72.0],
        [24.2, 71.5], [24.0, 71.0], [24.0, 70.5], [24.0, 70.0], [24.2, 69.5],
        [24.5, 68.5]
      ],
      "neighbors": [
        { "name": "Rajasthan", "position": [24.8, 72.0] },
        { "name": "Madhya Pradesh", "position": [23.5, 74.0] },
        { "name": "Maharashtra", "position": [21.0, 73.5] },
        { "name": "Dadra & Nagar Haveli and Daman & Diu", "position": [20.5, 73.0] },
        { "name": "Pakistan", "position": [24.0, 68.0] },
        { "name": "Arabian Sea", "position": [21.0, 68.5] }
      ],
      "landmarks": [
        { "name": "Ahmedabad", "lat": 23.0225, "lng": 72.5714, "type": "city", "label": "Ahmedabad" },
        { "name": "Gir National Park", "lat": 21.1243, "lng": 70.7933, "type": "national_park", "label": "Gir" },
        { "name": "Rann of Kutch", "lat": 23.7337, "lng": 69.8597, "type": "desert", "label": "Kutch" },
        { "name": "Somnath Temple", "lat": 20.8880, "lng": 70.4013, "type": "temple", "label": "Somnath" },
        { "name": "Dwarka", "lat": 22.2394, "lng": 68.9678, "type": "temple", "label": "Dwarka" },
        { "name": "Statue of Unity", "lat": 21.8380, "lng": 73.7191, "type": "monument", "label": "Statue of Unity" },
        { "name": "Rani ki Vav", "lat": 23.8585, "lng": 72.1011, "type": "monument", "label": "Rani ki Vav" },
        { "name": "Vadodara", "lat": 22.3072, "lng": 73.1812, "type": "city", "label": "Vadodara" }
      ],
      "rivers": [
        { "name": "Narmada", "path": [[22.0, 73.5], [21.8, 73.0], [21.6, 72.5]] },
        { "name": "Tapi", "path": [[21.5, 73.5], [21.2, 73.0], [21.0, 72.5]] },
        { "name": "Sabarmati", "path": [[24.0, 72.5], [23.5, 72.5], [23.0, 72.6]] }
      ]
    },
    {
      "name": "Haryana",
      "short_code": "HR",
      "region": "north",
      "tagline": "Flat land, sharp returns",
      "boundary": [
        [30.9, 76.0], [30.5, 76.5], [30.0, 77.0], [29.5, 77.2], [29.0, 77.0],
        [28.5, 76.8], [28.0, 76.5], [27.5, 76.5], [27.6, 76.0], [28.0, 75.8],
        [28.5, 75.5], [29.0, 75.5], [29.5, 75.8], [30.0, 76.0], [30.5, 76.0],
        [30.9, 76.0]
      ],
      "neighbors": [
        { "name": "Punjab", "position": [30.5, 75.5] },
        { "name": "Himachal Pradesh", "position": [31.0, 76.5] },
        { "name": "Uttarakhand", "position": [30.0, 77.5] },
        { "name": "Uttar Pradesh", "position": [28.5, 77.5] },
        { "name": "Delhi", "position": [28.6, 77.0] },
        { "name": "Rajasthan", "position": [27.5, 75.5] }
      ],
      "landmarks": [
        { "name": "Chandigarh (shared capital)", "lat": 30.7333, "lng": 76.7794, "type": "city", "label": "Chandigarh" },
        { "name": "Kurukshetra", "lat": 29.9695, "lng": 76.8783, "type": "monument", "label": "Kurukshetra" },
        { "name": "Sultanpur National Park", "lat": 28.4650, "lng": 76.8900, "type": "national_park", "label": "Sultanpur" },
        { "name": "Pinjore Gardens", "lat": 30.7960, "lng": 76.9200, "type": "monument", "label": "Pinjore" },
        { "name": "Surajkund", "lat": 28.4700, "lng": 77.2700, "type": "monument", "label": "Surajkund" },
        { "name": "Faridabad", "lat": 28.4089, "lng": 77.3178, "type": "city", "label": "Faridabad" },
        { "name": "Gurgaon (Gurugram)", "lat": 28.4595, "lng": 77.0266, "type": "city", "label": "Gurugram" }
      ],
      "rivers": [
        { "name": "Yamuna", "path": [[30.4, 77.2], [29.5, 77.1], [28.5, 77.0]] },
        { "name": "Ghaggar", "path": [[30.5, 76.5], [29.8, 76.2], [29.0, 75.8]] }
      ]
    },
    {
      "name": "Jharkhand",
      "short_code": "JH",
      "region": "east",
      "tagline": "Iron below, forest above",
      "boundary": [
        [25.0, 83.5], [24.5, 84.0], [24.0, 84.5], [23.5, 85.0], [23.0, 85.5],
        [22.5, 86.0], [22.0, 86.5], [22.0, 87.0], [22.5, 87.5], [23.0, 87.5],
        [23.5, 87.0], [24.0, 86.5], [24.5, 86.0], [25.0, 85.5], [25.0, 85.0],
        [25.0, 84.5], [25.0, 84.0], [25.0, 83.5]
      ],
      "neighbors": [
        { "name": "Bihar", "position": [25.5, 85.0] },
        { "name": "Uttar Pradesh", "position": [25.5, 83.5] },
        { "name": "Chhattisgarh", "position": [23.0, 83.5] },
        { "name": "Odisha", "position": [22.0, 85.5] },
        { "name": "West Bengal", "position": [23.0, 87.5] }
      ],
      "landmarks": [
        { "name": "Ranchi", "lat": 23.3441, "lng": 85.3096, "type": "city", "label": "Ranchi" },
        { "name": "Deoghar (Baidyanath)", "lat": 24.4921, "lng": 86.6943, "type": "temple", "label": "Deoghar" },
        { "name": "Betla National Park", "lat": 23.8800, "lng": 84.1600, "type": "national_park", "label": "Betla" },
        { "name": "Hundru Falls", "lat": 23.4500, "lng": 85.5600, "type": "waterfall", "label": "Hundru" },
        { "name": "Parasnath Hill", "lat": 23.9600, "lng": 86.1350, "type": "mountain", "label": "Parasnath" },
        { "name": "Jamshedpur", "lat": 22.8046, "lng": 86.2029, "type": "city", "label": "Jamshedpur" },
        { "name": "Netarhat", "lat": 23.4800, "lng": 84.2800, "type": "hill_station", "label": "Netarhat" }
      ],
      "rivers": [
        { "name": "Damodar", "path": [[23.8, 84.5], [23.5, 85.5], [23.5, 86.5]] },
        { "name": "Subarnarekha", "path": [[23.3, 85.3], [22.8, 86.0], [22.5, 86.5]] }
      ]
    },
    {
      "name": "Madhya Pradesh",
      "short_code": "MP",
      "region": "central",
      "tagline": "Center holds more than edges",
      "boundary": [
        [26.8, 77.0], [26.5, 78.0], [26.0, 79.0], [25.5, 80.0], [25.0, 80.5],
        [24.5, 81.0], [24.0, 81.5], [23.5, 81.0], [23.0, 80.5], [22.5, 80.0],
        [22.0, 79.5], [21.5, 79.0], [21.5, 78.0], [21.5, 77.0], [22.0, 76.0],
        [22.5, 75.5], [23.0, 75.0], [23.5, 74.5], [24.0, 74.5], [24.5, 75.0],
        [25.0, 75.5], [25.5, 76.0], [26.0, 76.5], [26.5, 77.0], [26.8, 77.0]
      ],
      "neighbors": [
        { "name": "Uttar Pradesh", "position": [26.5, 79.0] },
        { "name": "Chhattisgarh", "position": [23.0, 81.5] },
        { "name": "Maharashtra", "position": [21.0, 78.0] },
        { "name": "Gujarat", "position": [22.5, 74.5] },
        { "name": "Rajasthan", "position": [25.5, 75.0] }
      ],
      "landmarks": [
        { "name": "Khajuraho", "lat": 24.8318, "lng": 79.9199, "type": "temple", "label": "Khajuraho" },
        { "name": "Sanchi Stupa", "lat": 23.4793, "lng": 77.7399, "type": "monument", "label": "Sanchi" },
        { "name": "Bandhavgarh National Park", "lat": 23.7251, "lng": 80.9740, "type": "national_park", "label": "Bandhavgarh" },
        { "name": "Kanha National Park", "lat": 22.3344, "lng": 80.6115, "type": "national_park", "label": "Kanha" },
        { "name": "Bhopal", "lat": 23.2599, "lng": 77.4126, "type": "city", "label": "Bhopal" },
        { "name": "Orchha", "lat": 25.3520, "lng": 78.6408, "type": "fort", "label": "Orchha" },
        { "name": "Ujjain", "lat": 23.1765, "lng": 75.7885, "type": "temple", "label": "Ujjain" },
        { "name": "Pachmarhi", "lat": 22.4675, "lng": 78.4305, "type": "hill_station", "label": "Pachmarhi" }
      ],
      "rivers": [
        { "name": "Narmada", "path": [[23.5, 75.5], [23.0, 77.0], [22.5, 78.5], [22.0, 79.5]] },
        { "name": "Chambal", "path": [[24.5, 75.5], [25.0, 76.5], [25.5, 77.5], [26.0, 78.5]] },
        { "name": "Betwa", "path": [[23.5, 77.5], [24.5, 78.5], [25.5, 79.5]] },
        { "name": "Son", "path": [[23.0, 81.0], [23.5, 81.5], [24.0, 82.0]] }
      ]
    },
    {
      "name": "Maharashtra",
      "short_code": "MH",
      "region": "west",
      "tagline": "Fort count exceeds state count",
      "boundary": [
        [21.5, 72.5], [21.0, 73.0], [20.5, 73.5], [20.0, 73.5], [19.5, 73.0],
        [19.0, 72.8], [18.5, 73.0], [18.0, 73.2], [17.5, 73.5], [17.0, 73.8],
        [16.5, 74.0], [16.0, 74.2], [16.0, 74.8], [16.5, 75.5], [17.0, 76.0],
        [17.5, 77.0], [18.0, 78.0], [18.5, 79.0], [19.0, 79.5], [19.5, 80.0],
        [20.0, 80.5], [20.5, 80.5], [21.0, 80.0], [21.5, 79.5], [22.0, 79.0],
        [22.0, 78.0], [22.0, 77.0], [22.0, 76.0], [21.5, 75.0], [21.0, 74.0],
        [21.0, 73.5], [21.5, 72.5]
      ],
      "neighbors": [
        { "name": "Gujarat", "position": [21.5, 72.0] },
        { "name": "Madhya Pradesh", "position": [22.5, 77.5] },
        { "name": "Chhattisgarh", "position": [21.0, 80.5] },
        { "name": "Telangana", "position": [19.0, 79.5] },
        { "name": "Karnataka", "position": [16.5, 75.5] },
        { "name": "Goa", "position": [15.5, 74.0] },
        { "name": "Arabian Sea", "position": [18.0, 72.5] }
      ],
      "landmarks": [
        { "name": "Mumbai", "lat": 19.0760, "lng": 72.8777, "type": "city", "label": "Mumbai" },
        { "name": "Ajanta Caves", "lat": 20.5523, "lng": 75.7033, "type": "monument", "label": "Ajanta" },
        { "name": "Ellora Caves", "lat": 20.0267, "lng": 75.1792, "type": "monument", "label": "Ellora" },
        { "name": "Pune", "lat": 18.5204, "lng": 73.8567, "type": "city", "label": "Pune" },
        { "name": "Shirdi", "lat": 19.7668, "lng": 74.4780, "type": "temple", "label": "Shirdi" },
        { "name": "Lonavala", "lat": 18.7546, "lng": 73.4062, "type": "hill_station", "label": "Lonavala" },
        { "name": "Raigad Fort", "lat": 18.2354, "lng": 73.4481, "type": "fort", "label": "Raigad" },
        { "name": "Mahabaleshwar", "lat": 17.9307, "lng": 73.6477, "type": "hill_station", "label": "Mahabaleshwar" }
      ],
      "rivers": [
        { "name": "Godavari", "path": [[20.0, 73.5], [19.5, 75.0], [19.0, 77.0], [19.0, 79.0]] },
        { "name": "Krishna", "path": [[18.0, 73.5], [17.5, 75.0], [17.0, 76.5]] },
        { "name": "Tapi", "path": [[21.0, 74.0], [21.0, 75.5], [21.2, 77.0]] }
      ]
    },
    {
      "name": "Manipur",
      "short_code": "MN",
      "region": "northeast",
      "tagline": "Lake floats an entire civilization",
      "boundary": [
        [25.7, 93.5], [25.5, 94.0], [25.2, 94.5], [25.0, 94.5], [24.5, 94.5],
        [24.2, 94.0], [24.0, 93.8], [24.0, 93.5], [24.2, 93.2], [24.5, 93.0],
        [25.0, 93.0], [25.2, 93.2], [25.5, 93.2], [25.7, 93.5]
      ],
      "neighbors": [
        { "name": "Nagaland", "position": [26.0, 94.0] },
        { "name": "Assam", "position": [25.8, 93.0] },
        { "name": "Mizoram", "position": [23.8, 93.0] },
        { "name": "Myanmar", "position": [24.5, 95.0] }
      ],
      "landmarks": [
        { "name": "Imphal", "lat": 24.8170, "lng": 93.9368, "type": "city", "label": "Imphal" },
        { "name": "Loktak Lake", "lat": 24.5333, "lng": 93.8000, "type": "lake", "label": "Loktak" },
        { "name": "Kangla Fort", "lat": 24.7973, "lng": 93.9384, "type": "fort", "label": "Kangla" },
        { "name": "Keibul Lamjao National Park", "lat": 24.4900, "lng": 93.7900, "type": "national_park", "label": "Keibul Lamjao" },
        { "name": "Shirui Peak", "lat": 25.1200, "lng": 94.4700, "type": "mountain", "label": "Shirui" },
        { "name": "Ukhrul", "lat": 25.1186, "lng": 94.3596, "type": "hill_station", "label": "Ukhrul" },
        { "name": "Dzukou Valley", "lat": 25.5600, "lng": 94.1200, "type": "valley", "label": "Dzukou" }
      ],
      "rivers": [
        { "name": "Barak", "path": [[25.2, 93.5], [24.8, 93.8], [24.5, 93.5]] },
        { "name": "Imphal River", "path": [[25.0, 94.0], [24.8, 93.9], [24.5, 93.8]] }
      ]
    },
    {
      "name": "Meghalaya",
      "short_code": "ML",
      "region": "northeast",
      "tagline": "Wettest place, clearest water",
      "boundary": [
        [26.1, 89.8], [26.0, 90.5], [25.8, 91.0], [25.5, 91.5], [25.2, 92.0],
        [25.0, 92.5], [25.0, 92.0], [25.0, 91.5], [25.0, 91.0], [25.0, 90.5],
        [25.0, 90.0], [25.2, 89.8], [25.5, 89.8], [25.8, 89.8], [26.1, 89.8]
      ],
      "neighbors": [
        { "name": "Assam", "position": [26.3, 91.0] },
        { "name": "Bangladesh", "position": [24.8, 91.0] }
      ],
      "landmarks": [
        { "name": "Shillong", "lat": 25.5788, "lng": 91.8933, "type": "city", "label": "Shillong" },
        { "name": "Cherrapunji (Sohra)", "lat": 25.2700, "lng": 91.7320, "type": "hill_station", "label": "Cherrapunji" },
        { "name": "Mawsynram", "lat": 25.2972, "lng": 91.5822, "type": "hill_station", "label": "Mawsynram" },
        { "name": "Living Root Bridges", "lat": 25.2500, "lng": 91.7300, "type": "monument", "label": "Root Bridges" },
        { "name": "Dawki", "lat": 25.1833, "lng": 92.0167, "type": "lake", "label": "Dawki" },
        { "name": "Elephant Falls", "lat": 25.5400, "lng": 91.8600, "type": "waterfall", "label": "Elephant Falls" },
        { "name": "Nohkalikai Falls", "lat": 25.2667, "lng": 91.6833, "type": "waterfall", "label": "Nohkalikai" },
        { "name": "Mawlynnong", "lat": 25.2000, "lng": 91.9300, "type": "city", "label": "Mawlynnong" }
      ],
      "rivers": [
        { "name": "Umiam", "path": [[25.6, 91.9], [25.5, 91.8], [25.3, 91.7]] },
        { "name": "Umngot", "path": [[25.2, 92.0], [25.1, 92.1], [25.0, 92.2]] }
      ]
    },
    {
      "name": "Mizoram",
      "short_code": "MZ",
      "region": "northeast",
      "tagline": "Hills in rows, literacy in scores",
      "boundary": [
        [24.2, 92.3], [24.0, 92.8], [23.5, 93.0], [23.0, 93.2], [22.5, 93.0],
        [22.0, 92.8], [21.8, 92.5], [22.0, 92.0], [22.5, 92.2], [23.0, 92.5],
        [23.5, 92.5], [24.0, 92.3], [24.2, 92.3]
      ],
      "neighbors": [
        { "name": "Assam", "position": [24.5, 92.5] },
        { "name": "Manipur", "position": [24.5, 93.5] },
        { "name": "Tripura", "position": [23.5, 91.8] },
        { "name": "Myanmar", "position": [22.0, 93.5] },
        { "name": "Bangladesh", "position": [22.0, 91.5] }
      ],
      "landmarks": [
        { "name": "Aizawl", "lat": 23.7271, "lng": 92.7176, "type": "city", "label": "Aizawl" },
        { "name": "Phawngpui (Blue Mountain)", "lat": 22.6500, "lng": 93.0200, "type": "mountain", "label": "Blue Mountain" },
        { "name": "Dampa Tiger Reserve", "lat": 23.7000, "lng": 92.4000, "type": "wildlife", "label": "Dampa" },
        { "name": "Tam Dil", "lat": 23.4500, "lng": 92.8500, "type": "lake", "label": "Tam Dil" },
        { "name": "Reiek", "lat": 23.6800, "lng": 92.6200, "type": "mountain", "label": "Reiek" },
        { "name": "Vantawng Falls", "lat": 22.8300, "lng": 93.0100, "type": "waterfall", "label": "Vantawng" },
        { "name": "Champhai", "lat": 23.4564, "lng": 93.3280, "type": "city", "label": "Champhai" }
      ],
      "rivers": [
        { "name": "Tlawng", "path": [[23.7, 92.7], [23.3, 92.5], [23.0, 92.3]] },
        { "name": "Chhimtuipui", "path": [[22.5, 93.0], [22.2, 93.2], [22.0, 93.0]] }
      ]
    },
    {
      "name": "Nagaland",
      "short_code": "NL",
      "region": "northeast",
      "tagline": "Sixteen tribes, one Hornbill",
      "boundary": [
        [27.0, 93.5], [26.8, 94.0], [26.5, 94.5], [26.2, 95.0], [26.0, 95.3],
        [25.8, 95.0], [25.5, 94.5], [25.5, 94.0], [25.8, 93.5], [26.0, 93.3],
        [26.3, 93.3], [26.5, 93.5], [26.8, 93.5], [27.0, 93.5]
      ],
      "neighbors": [
        { "name": "Assam", "position": [26.0, 93.0] },
        { "name": "Arunachal Pradesh", "position": [27.2, 94.0] },
        { "name": "Manipur", "position": [25.3, 94.0] },
        { "name": "Myanmar", "position": [26.0, 95.5] }
      ],
      "landmarks": [
        { "name": "Kohima", "lat": 25.6751, "lng": 94.1086, "type": "city", "label": "Kohima" },
        { "name": "Dimapur", "lat": 25.9065, "lng": 93.7270, "type": "city", "label": "Dimapur" },
        { "name": "Kohima War Cemetery", "lat": 25.6700, "lng": 94.1000, "type": "monument", "label": "War Cemetery" },
        { "name": "Dzukou Valley", "lat": 25.5600, "lng": 94.1200, "type": "valley", "label": "Dzukou" },
        { "name": "Mon", "lat": 26.7500, "lng": 95.0500, "type": "city", "label": "Mon" },
        { "name": "Mokokchung", "lat": 26.3248, "lng": 94.5179, "type": "city", "label": "Mokokchung" },
        { "name": "Japfu Peak", "lat": 25.6400, "lng": 94.1300, "type": "mountain", "label": "Japfu" }
      ],
      "rivers": [
        { "name": "Doyang", "path": [[26.5, 94.0], [26.2, 93.8], [26.0, 93.5]] },
        { "name": "Dhansiri", "path": [[26.0, 93.5], [25.8, 93.3], [25.5, 93.0]] }
      ]
    },
    {
      "name": "Odisha",
      "short_code": "OD",
      "region": "east",
      "tagline": "Temple architecture wrote the textbook",
      "boundary": [
        [22.5, 81.5], [22.0, 82.0], [21.5, 82.5], [21.0, 83.0], [20.5, 83.5],
        [20.0, 84.0], [19.5, 84.5], [19.0, 85.0], [19.0, 85.5], [19.5, 86.0],
        [19.8, 86.5], [20.2, 87.0], [20.5, 87.5], [21.0, 87.2], [21.5, 87.0],
        [22.0, 86.5], [22.5, 86.0], [22.5, 85.5], [22.5, 85.0], [22.5, 84.5],
        [22.0, 84.0], [22.0, 83.5], [22.0, 83.0], [22.0, 82.5], [22.5, 82.0],
        [22.5, 81.5]
      ],
      "neighbors": [
        { "name": "Chhattisgarh", "position": [21.0, 81.5] },
        { "name": "Jharkhand", "position": [22.5, 85.0] },
        { "name": "West Bengal", "position": [21.5, 87.5] },
        { "name": "Andhra Pradesh", "position": [19.0, 83.5] },
        { "name": "Bay of Bengal", "position": [19.5, 87.0] }
      ],
      "landmarks": [
        { "name": "Puri (Jagannath Temple)", "lat": 19.8135, "lng": 85.8312, "type": "temple", "label": "Puri" },
        { "name": "Konark Sun Temple", "lat": 19.8876, "lng": 86.0946, "type": "temple", "label": "Konark" },
        { "name": "Bhubaneswar", "lat": 20.2961, "lng": 85.8245, "type": "city", "label": "Bhubaneswar" },
        { "name": "Chilika Lake", "lat": 19.7250, "lng": 85.3200, "type": "lake", "label": "Chilika" },
        { "name": "Simlipal National Park", "lat": 21.8300, "lng": 86.3400, "type": "national_park", "label": "Simlipal" },
        { "name": "Lingaraj Temple", "lat": 20.2386, "lng": 85.8340, "type": "temple", "label": "Lingaraj" },
        { "name": "Gopalpur Beach", "lat": 19.2605, "lng": 84.9048, "type": "beach", "label": "Gopalpur" },
        { "name": "Bhitarkanika", "lat": 20.7300, "lng": 87.0000, "type": "wildlife", "label": "Bhitarkanika" }
      ],
      "rivers": [
        { "name": "Mahanadi", "path": [[21.5, 82.5], [20.8, 84.0], [20.5, 85.5], [20.3, 86.5]] },
        { "name": "Brahmani", "path": [[22.0, 84.5], [21.5, 85.5], [21.0, 86.5]] },
        { "name": "Baitarani", "path": [[22.0, 85.0], [21.5, 86.0], [21.0, 86.5]] }
      ]
    },
    {
      "name": "Punjab",
      "short_code": "PB",
      "region": "north",
      "tagline": "Five rivers, one conviction",
      "boundary": [
        [32.5, 74.5], [32.2, 75.0], [31.8, 75.5], [31.5, 76.0], [31.0, 76.5],
        [30.5, 76.5], [30.2, 76.3], [30.0, 76.0], [29.5, 75.5], [29.5, 75.0],
        [30.0, 74.5], [30.5, 74.0], [31.0, 74.0], [31.5, 74.2], [32.0, 74.5],
        [32.5, 74.5]
      ],
      "neighbors": [
        { "name": "Jammu & Kashmir", "position": [32.8, 74.8] },
        { "name": "Himachal Pradesh", "position": [31.5, 76.3] },
        { "name": "Haryana", "position": [30.0, 76.5] },
        { "name": "Rajasthan", "position": [29.5, 74.5] },
        { "name": "Pakistan", "position": [31.0, 73.5] }
      ],
      "landmarks": [
        { "name": "Amritsar (Golden Temple)", "lat": 31.6200, "lng": 74.8765, "type": "temple", "label": "Amritsar" },
        { "name": "Wagah Border", "lat": 31.6047, "lng": 74.5727, "type": "monument", "label": "Wagah" },
        { "name": "Jallianwala Bagh", "lat": 31.6209, "lng": 74.8802, "type": "monument", "label": "Jallianwala Bagh" },
        { "name": "Ludhiana", "lat": 30.9010, "lng": 75.8573, "type": "city", "label": "Ludhiana" },
        { "name": "Patiala", "lat": 30.3398, "lng": 76.3869, "type": "city", "label": "Patiala" },
        { "name": "Anandpur Sahib", "lat": 31.2394, "lng": 76.5018, "type": "temple", "label": "Anandpur Sahib" },
        { "name": "Harike Wetland", "lat": 31.1700, "lng": 74.9400, "type": "wildlife", "label": "Harike" }
      ],
      "rivers": [
        { "name": "Sutlej", "path": [[31.5, 76.0], [31.0, 75.5], [30.5, 75.0], [30.0, 74.5]] },
        { "name": "Beas", "path": [[31.8, 75.8], [31.5, 75.5], [31.2, 75.0]] },
        { "name": "Ravi", "path": [[32.2, 75.0], [31.8, 75.0], [31.5, 74.8]] }
      ]
    },
    {
      "name": "Sikkim",
      "short_code": "SK",
      "region": "northeast",
      "tagline": "Organic before it was a label",
      "boundary": [
        [28.1, 88.0], [28.0, 88.5], [27.8, 88.8], [27.5, 88.9], [27.2, 88.7],
        [27.0, 88.5], [27.0, 88.2], [27.2, 88.0], [27.5, 88.0], [27.8, 88.0],
        [28.1, 88.0]
      ],
      "neighbors": [
        { "name": "West Bengal", "position": [26.8, 88.5] },
        { "name": "Nepal", "position": [27.5, 87.8] },
        { "name": "Tibet (China)", "position": [28.3, 88.5] },
        { "name": "Bhutan", "position": [27.5, 89.2] }
      ],
      "landmarks": [
        { "name": "Gangtok", "lat": 27.3389, "lng": 88.6065, "type": "city", "label": "Gangtok" },
        { "name": "Kanchenjunga", "lat": 27.7025, "lng": 88.1475, "type": "mountain", "label": "Kanchenjunga" },
        { "name": "Tsomgo Lake", "lat": 27.3753, "lng": 88.7650, "type": "lake", "label": "Tsomgo" },
        { "name": "Nathula Pass", "lat": 27.3867, "lng": 88.8300, "type": "pass", "label": "Nathula" },
        { "name": "Pelling", "lat": 27.3000, "lng": 88.2300, "type": "hill_station", "label": "Pelling" },
        { "name": "Rumtek Monastery", "lat": 27.2650, "lng": 88.5565, "type": "monastery", "label": "Rumtek" },
        { "name": "Yumthang Valley", "lat": 27.8000, "lng": 88.6900, "type": "valley", "label": "Yumthang" },
        { "name": "Gurudongmar Lake", "lat": 28.0253, "lng": 88.7064, "type": "lake", "label": "Gurudongmar" }
      ],
      "rivers": [
        { "name": "Teesta", "path": [[28.0, 88.5], [27.5, 88.5], [27.0, 88.5]] },
        { "name": "Rangit", "path": [[27.3, 88.2], [27.1, 88.3], [27.0, 88.5]] }
      ]
    },
    {
      "name": "Tamil Nadu",
      "short_code": "TN",
      "region": "south",
      "tagline": "Temples outnumber traffic signals",
      "boundary": [
        [13.5, 79.2], [13.2, 79.8], [13.0, 80.2], [12.8, 80.3], [12.5, 80.2],
        [12.0, 80.0], [11.5, 79.8], [11.0, 79.8], [10.5, 80.0], [10.0, 79.8],
        [9.5, 79.3], [9.2, 79.1], [8.8, 78.5], [8.2, 77.5], [8.5, 77.2],
        [9.0, 77.2], [9.5, 77.0], [10.0, 76.8], [10.5, 76.8], [11.0, 76.8],
        [11.5, 77.0], [12.0, 77.5], [12.5, 77.8], [13.0, 78.5], [13.2, 79.0],
        [13.5, 79.2]
      ],
      "neighbors": [
        { "name": "Kerala", "position": [10.0, 76.5] },
        { "name": "Karnataka", "position": [12.5, 77.0] },
        { "name": "Andhra Pradesh", "position": [13.5, 79.5] },
        { "name": "Puducherry", "position": [11.9, 79.9] },
        { "name": "Bay of Bengal", "position": [11.0, 80.5] },
        { "name": "Indian Ocean", "position": [8.0, 78.0] }
      ],
      "landmarks": [
        { "name": "Chennai", "lat": 13.0827, "lng": 80.2707, "type": "city", "label": "Chennai" },
        { "name": "Madurai (Meenakshi Temple)", "lat": 9.9252, "lng": 78.1198, "type": "temple", "label": "Madurai" },
        { "name": "Rameswaram", "lat": 9.2876, "lng": 79.3129, "type": "temple", "label": "Rameswaram" },
        { "name": "Ooty", "lat": 11.4102, "lng": 76.6950, "type": "hill_station", "label": "Ooty" },
        { "name": "Kodaikanal", "lat": 10.2381, "lng": 77.4892, "type": "hill_station", "label": "Kodaikanal" },
        { "name": "Kanyakumari", "lat": 8.0883, "lng": 77.5385, "type": "monument", "label": "Kanyakumari" },
        { "name": "Mahabalipuram", "lat": 12.6172, "lng": 80.1927, "type": "monument", "label": "Mahabalipuram" },
        { "name": "Thanjavur (Brihadeeswarar)", "lat": 10.7867, "lng": 79.1378, "type": "temple", "label": "Thanjavur" }
      ],
      "rivers": [
        { "name": "Kaveri", "path": [[12.0, 77.5], [11.5, 78.0], [11.0, 78.5], [10.8, 79.5]] },
        { "name": "Vaigai", "path": [[10.2, 77.5], [10.0, 78.0], [9.9, 78.5]] },
        { "name": "Tamiraparani", "path": [[8.7, 77.3], [8.5, 77.8], [8.4, 78.0]] }
      ]
    },
    {
      "name": "Telangana",
      "short_code": "TG",
      "region": "south",
      "tagline": "Biryani funded a tech corridor",
      "boundary": [
        [19.5, 77.5], [19.0, 78.0], [18.5, 78.5], [18.0, 79.0], [17.5, 79.5],
        [17.0, 80.0], [17.0, 80.5], [17.5, 80.5], [18.0, 80.5], [18.5, 80.2],
        [19.0, 79.5], [19.5, 79.0], [20.0, 78.5], [19.8, 78.0], [19.5, 77.5]
      ],
      "neighbors": [
        { "name": "Maharashtra", "position": [19.5, 77.0] },
        { "name": "Chhattisgarh", "position": [20.0, 80.0] },
        { "name": "Andhra Pradesh", "position": [16.5, 79.0] },
        { "name": "Karnataka", "position": [17.0, 77.0] }
      ],
      "landmarks": [
        { "name": "Hyderabad", "lat": 17.3850, "lng": 78.4867, "type": "city", "label": "Hyderabad" },
        { "name": "Charminar", "lat": 17.3616, "lng": 78.4747, "type": "monument", "label": "Charminar" },
        { "name": "Golconda Fort", "lat": 17.3833, "lng": 78.4011, "type": "fort", "label": "Golconda" },
        { "name": "Ramoji Film City", "lat": 17.2543, "lng": 78.6808, "type": "monument", "label": "Ramoji" },
        { "name": "Warangal Fort", "lat": 17.9561, "lng": 79.5937, "type": "fort", "label": "Warangal" },
        { "name": "Nagarjunasagar", "lat": 16.5286, "lng": 79.3140, "type": "monument", "label": "Nagarjunasagar" },
        { "name": "Medak Cathedral", "lat": 18.0500, "lng": 78.2600, "type": "monument", "label": "Medak" }
      ],
      "rivers": [
        { "name": "Godavari", "path": [[19.5, 78.0], [18.5, 79.0], [17.5, 80.0]] },
        { "name": "Krishna", "path": [[17.5, 78.0], [17.0, 79.0], [16.5, 79.5]] },
        { "name": "Musi", "path": [[17.5, 78.0], [17.4, 78.5], [17.3, 79.0]] }
      ]
    },
    {
      "name": "Tripura",
      "short_code": "TR",
      "region": "northeast",
      "tagline": "Smallest footprint, oldest palace",
      "boundary": [
        [24.5, 91.5], [24.2, 92.0], [24.0, 92.2], [23.5, 92.2], [23.0, 92.0],
        [22.8, 91.5], [23.0, 91.3], [23.5, 91.2], [24.0, 91.2], [24.5, 91.5]
      ],
      "neighbors": [
        { "name": "Assam", "position": [24.5, 92.0] },
        { "name": "Mizoram", "position": [23.5, 92.5] },
        { "name": "Bangladesh", "position": [23.5, 91.0] }
      ],
      "landmarks": [
        { "name": "Agartala", "lat": 23.8315, "lng": 91.2868, "type": "city", "label": "Agartala" },
        { "name": "Ujjayanta Palace", "lat": 23.8368, "lng": 91.2800, "type": "palace", "label": "Ujjayanta" },
        { "name": "Neermahal", "lat": 23.5000, "lng": 91.4500, "type": "palace", "label": "Neermahal" },
        { "name": "Unakoti", "lat": 24.3400, "lng": 92.0800, "type": "monument", "label": "Unakoti" },
        { "name": "Jampui Hills", "lat": 23.9000, "lng": 92.3000, "type": "hill_station", "label": "Jampui" },
        { "name": "Sepahijala Wildlife Sanctuary", "lat": 23.6500, "lng": 91.3500, "type": "wildlife", "label": "Sepahijala" }
      ],
      "rivers": [
        { "name": "Gomati", "path": [[24.0, 91.5], [23.7, 91.3], [23.3, 91.2]] },
        { "name": "Haora", "path": [[24.0, 91.3], [23.8, 91.3], [23.5, 91.3]] }
      ]
    },
    {
      "name": "Uttar Pradesh",
      "short_code": "UP",
      "region": "north",
      "tagline": "History per square kilometre, unmatched",
      "boundary": [
        [30.2, 77.5], [30.0, 78.0], [29.5, 79.0], [29.0, 80.0], [28.5, 80.5],
        [28.0, 81.0], [27.5, 82.0], [27.0, 83.0], [26.5, 83.5], [26.0, 84.0],
        [25.5, 84.0], [25.0, 83.5], [25.0, 83.0], [25.0, 82.5], [25.0, 82.0],
        [25.0, 81.0], [25.0, 80.5], [25.5, 80.0], [26.0, 79.5], [26.5, 78.5],
        [27.0, 78.0], [27.5, 77.5], [28.0, 77.0], [28.5, 77.0], [29.0, 77.2],
        [29.5, 77.5], [30.0, 77.5], [30.2, 77.5]
      ],
      "neighbors": [
        { "name": "Uttarakhand", "position": [30.5, 78.5] },
        { "name": "Himachal Pradesh", "position": [31.0, 77.0] },
        { "name": "Haryana", "position": [29.0, 77.0] },
        { "name": "Delhi", "position": [28.7, 77.0] },
        { "name": "Rajasthan", "position": [27.0, 77.0] },
        { "name": "Madhya Pradesh", "position": [25.0, 79.0] },
        { "name": "Chhattisgarh", "position": [25.0, 82.0] },
        { "name": "Bihar", "position": [26.0, 84.0] },
        { "name": "Nepal", "position": [28.5, 81.5] }
      ],
      "landmarks": [
        { "name": "Agra (Taj Mahal)", "lat": 27.1751, "lng": 78.0421, "type": "monument", "label": "Taj Mahal" },
        { "name": "Varanasi", "lat": 25.3176, "lng": 82.9739, "type": "city", "label": "Varanasi" },
        { "name": "Lucknow", "lat": 26.8467, "lng": 80.9462, "type": "city", "label": "Lucknow" },
        { "name": "Fatehpur Sikri", "lat": 27.0945, "lng": 77.6679, "type": "monument", "label": "Fatehpur Sikri" },
        { "name": "Sarnath", "lat": 25.3810, "lng": 83.0227, "type": "monument", "label": "Sarnath" },
        { "name": "Ayodhya", "lat": 26.7922, "lng": 82.1998, "type": "temple", "label": "Ayodhya" },
        { "name": "Mathura", "lat": 27.4924, "lng": 77.6737, "type": "temple", "label": "Mathura" },
        { "name": "Dudhwa National Park", "lat": 28.5300, "lng": 80.6700, "type": "national_park", "label": "Dudhwa" }
      ],
      "rivers": [
        { "name": "Ganga", "path": [[29.5, 78.2], [28.5, 79.5], [27.0, 81.0], [25.5, 83.0]] },
        { "name": "Yamuna", "path": [[30.0, 77.5], [28.5, 77.2], [27.0, 78.0], [26.0, 80.0], [25.5, 81.5]] },
        { "name": "Gomti", "path": [[28.5, 80.0], [27.5, 80.5], [26.5, 81.5]] }
      ]
    },
    {
      "name": "West Bengal",
      "short_code": "WB",
      "region": "east",
      "tagline": "Calculus, cinema, and clay",
      "boundary": [
        [27.2, 88.0], [27.0, 88.5], [26.5, 89.0], [26.0, 89.5], [25.5, 89.5],
        [25.0, 89.0], [24.5, 88.5], [24.0, 88.5], [23.5, 88.5], [23.0, 88.5],
        [22.5, 88.5], [22.0, 88.5], [21.5, 88.0], [21.5, 87.5], [22.0, 87.0],
        [22.5, 86.8], [23.0, 87.0], [23.5, 87.0], [24.0, 87.0], [24.5, 87.5],
        [25.0, 87.5], [25.5, 87.8], [26.0, 88.0], [26.5, 88.0], [27.0, 88.0],
        [27.2, 88.0]
      ],
      "neighbors": [
        { "name": "Sikkim", "position": [27.5, 88.5] },
        { "name": "Bihar", "position": [25.5, 87.0] },
        { "name": "Jharkhand", "position": [23.0, 86.5] },
        { "name": "Odisha", "position": [22.0, 87.0] },
        { "name": "Assam", "position": [26.5, 89.5] },
        { "name": "Bangladesh", "position": [24.0, 89.0] },
        { "name": "Nepal", "position": [27.0, 87.5] },
        { "name": "Bay of Bengal", "position": [21.5, 88.5] }
      ],
      "landmarks": [
        { "name": "Kolkata", "lat": 22.5726, "lng": 88.3639, "type": "city", "label": "Kolkata" },
        { "name": "Darjeeling", "lat": 27.0410, "lng": 88.2663, "type": "hill_station", "label": "Darjeeling" },
        { "name": "Sundarbans", "lat": 21.9497, "lng": 88.8975, "type": "wildlife", "label": "Sundarbans" },
        { "name": "Victoria Memorial", "lat": 22.5448, "lng": 88.3426, "type": "monument", "label": "Victoria Memorial" },
        { "name": "Howrah Bridge", "lat": 22.5851, "lng": 88.3468, "type": "monument", "label": "Howrah Bridge" },
        { "name": "Shantiniketan", "lat": 23.6784, "lng": 87.6855, "type": "monument", "label": "Shantiniketan" },
        { "name": "Kalimpong", "lat": 27.0660, "lng": 88.4740, "type": "hill_station", "label": "Kalimpong" },
        { "name": "Digha Beach", "lat": 21.6259, "lng": 87.5081, "type": "beach", "label": "Digha" }
      ],
      "rivers": [
        { "name": "Hooghly (Ganga)", "path": [[24.0, 88.0], [23.0, 88.3], [22.0, 88.3], [21.7, 88.1]] },
        { "name": "Teesta", "path": [[27.0, 88.5], [26.5, 88.8], [26.0, 89.0]] },
        { "name": "Damodar", "path": [[23.5, 87.0], [23.0, 87.5], [22.5, 88.0]] }
      ]
    }
  ],
  "union_territories": [
    {
      "name": "Andaman & Nicobar Islands",
      "short_code": "AN",
      "region": "east",
      "tagline": "Coordinates off every mainland map",
      "boundary": [
        [13.6, 92.6], [13.2, 93.0], [12.8, 93.0], [12.5, 92.8], [12.0, 92.8],
        [11.5, 92.7], [11.0, 92.7], [10.5, 92.5], [10.0, 92.5], [9.5, 92.5],
        [9.0, 92.7], [8.0, 93.0], [7.0, 93.8], [7.0, 93.5], [7.5, 93.2],
        [8.0, 92.8], [8.5, 92.5], [9.0, 92.3], [9.5, 92.3], [10.0, 92.3],
        [10.5, 92.3], [11.0, 92.5], [11.5, 92.5], [12.0, 92.5], [12.5, 92.5],
        [13.0, 92.7], [13.6, 92.6]
      ],
      "neighbors": [
        { "name": "Bay of Bengal", "position": [12.0, 91.5] },
        { "name": "Myanmar", "position": [13.0, 93.5] },
        { "name": "Indonesia", "position": [6.5, 93.5] }
      ],
      "landmarks": [
        { "name": "Port Blair", "lat": 11.6234, "lng": 92.7265, "type": "city", "label": "Port Blair" },
        { "name": "Cellular Jail", "lat": 11.6930, "lng": 92.7550, "type": "monument", "label": "Cellular Jail" },
        { "name": "Havelock Island (Swaraj Dweep)", "lat": 12.0263, "lng": 93.0030, "type": "island", "label": "Havelock" },
        { "name": "Radhanagar Beach", "lat": 11.9811, "lng": 92.9389, "type": "beach", "label": "Radhanagar" },
        { "name": "Neil Island (Shaheed Dweep)", "lat": 11.8300, "lng": 93.0400, "type": "island", "label": "Neil Island" },
        { "name": "Ross Island (Netaji Subhas Chandra Bose Island)", "lat": 11.6800, "lng": 92.7600, "type": "island", "label": "Ross Island" },
        { "name": "Baratang Island", "lat": 12.0700, "lng": 92.7300, "type": "island", "label": "Baratang" }
      ],
      "rivers": [
        { "name": "Alexandra River", "path": [[11.7, 92.7], [11.6, 92.7], [11.5, 92.6]] }
      ]
    },
    {
      "name": "Chandigarh",
      "short_code": "CH",
      "region": "north",
      "tagline": "Grid city, no wrong turns",
      "boundary": [
        [30.8, 76.7], [30.78, 76.8], [30.75, 76.82], [30.72, 76.82],
        [30.70, 76.80], [30.70, 76.75], [30.72, 76.72], [30.75, 76.70],
        [30.78, 76.72], [30.8, 76.7]
      ],
      "neighbors": [
        { "name": "Punjab", "position": [30.82, 76.7] },
        { "name": "Haryana", "position": [30.68, 76.8] }
      ],
      "landmarks": [
        { "name": "Rock Garden", "lat": 30.7525, "lng": 76.8085, "type": "monument", "label": "Rock Garden" },
        { "name": "Sukhna Lake", "lat": 30.7421, "lng": 76.8188, "type": "lake", "label": "Sukhna Lake" },
        { "name": "Capitol Complex", "lat": 30.7610, "lng": 76.8003, "type": "monument", "label": "Capitol Complex" },
        { "name": "Rose Garden", "lat": 30.7445, "lng": 76.7842, "type": "monument", "label": "Rose Garden" },
        { "name": "Elante Mall", "lat": 30.7060, "lng": 76.8019, "type": "city", "label": "Sector 17" },
        { "name": "Open Hand Monument", "lat": 30.7612, "lng": 76.8007, "type": "monument", "label": "Open Hand" }
      ],
      "rivers": []
    },
    {
      "name": "Dadra & Nagar Haveli and Daman & Diu",
      "short_code": "DD",
      "region": "west",
      "tagline": "Two coastlines, zero queues",
      "boundary": [
        [20.5, 72.8], [20.4, 73.0], [20.3, 73.1], [20.2, 73.0], [20.1, 72.9],
        [20.1, 72.8], [20.2, 72.7], [20.3, 72.7], [20.4, 72.7], [20.5, 72.8]
      ],
      "neighbors": [
        { "name": "Gujarat", "position": [20.6, 72.8] },
        { "name": "Maharashtra", "position": [20.0, 73.0] },
        { "name": "Arabian Sea", "position": [20.2, 72.5] }
      ],
      "landmarks": [
        { "name": "Silvassa", "lat": 20.2739, "lng": 73.0169, "type": "city", "label": "Silvassa" },
        { "name": "Daman", "lat": 20.3974, "lng": 72.8328, "type": "city", "label": "Daman" },
        { "name": "Diu Fort", "lat": 20.7147, "lng": 70.9263, "type": "fort", "label": "Diu Fort" },
        { "name": "Nagoa Beach (Diu)", "lat": 20.7100, "lng": 70.9400, "type": "beach", "label": "Nagoa" },
        { "name": "Vanganga Lake Garden", "lat": 20.2600, "lng": 73.0100, "type": "lake", "label": "Vanganga" },
        { "name": "Satmaliya Deer Park", "lat": 20.2700, "lng": 73.0300, "type": "wildlife", "label": "Satmaliya" }
      ],
      "rivers": [
        { "name": "Daman Ganga", "path": [[20.4, 73.0], [20.3, 72.9], [20.2, 72.8]] }
      ]
    },
    {
      "name": "Delhi",
      "short_code": "DL",
      "region": "north",
      "tagline": "Seven cities deep, still building",
      "boundary": [
        [28.88, 76.95], [28.85, 77.10], [28.80, 77.15], [28.75, 77.20],
        [28.65, 77.25], [28.55, 77.30], [28.50, 77.25], [28.48, 77.10],
        [28.50, 77.00], [28.55, 76.95], [28.60, 76.90], [28.65, 76.85],
        [28.70, 76.85], [28.75, 76.87], [28.80, 76.90], [28.85, 76.92],
        [28.88, 76.95]
      ],
      "neighbors": [
        { "name": "Haryana", "position": [28.9, 76.8] },
        { "name": "Uttar Pradesh", "position": [28.6, 77.35] }
      ],
      "landmarks": [
        { "name": "Red Fort", "lat": 28.6562, "lng": 77.2410, "type": "fort", "label": "Red Fort" },
        { "name": "India Gate", "lat": 28.6129, "lng": 77.2295, "type": "monument", "label": "India Gate" },
        { "name": "Qutub Minar", "lat": 28.5245, "lng": 77.1855, "type": "monument", "label": "Qutub Minar" },
        { "name": "Humayun's Tomb", "lat": 28.5933, "lng": 77.2507, "type": "monument", "label": "Humayun's Tomb" },
        { "name": "Lotus Temple", "lat": 28.5535, "lng": 77.2588, "type": "temple", "label": "Lotus Temple" },
        { "name": "Jama Masjid", "lat": 28.6507, "lng": 77.2334, "type": "monument", "label": "Jama Masjid" },
        { "name": "Chandni Chowk", "lat": 28.6506, "lng": 77.2302, "type": "city", "label": "Chandni Chowk" },
        { "name": "Akshardham", "lat": 28.6127, "lng": 77.2773, "type": "temple", "label": "Akshardham" }
      ],
      "rivers": [
        { "name": "Yamuna", "path": [[28.85, 77.10], [28.70, 77.20], [28.50, 77.25]] }
      ]
    },
    {
      "name": "Jammu & Kashmir",
      "short_code": "JK",
      "region": "north",
      "tagline": "Valley deeper than the argument",
      "boundary": [
        [34.5, 74.0], [34.2, 74.5], [34.0, 75.0], [33.5, 75.5], [33.0, 76.0],
        [32.5, 76.5], [32.0, 76.0], [32.5, 75.5], [32.2, 75.0], [32.5, 74.5],
        [33.0, 74.0], [33.5, 73.5], [34.0, 73.5], [34.5, 74.0]
      ],
      "neighbors": [
        { "name": "Ladakh", "position": [34.0, 76.5] },
        { "name": "Himachal Pradesh", "position": [32.5, 76.5] },
        { "name": "Punjab", "position": [32.5, 74.5] },
        { "name": "Pakistan", "position": [34.0, 73.0] }
      ],
      "landmarks": [
        { "name": "Srinagar (Dal Lake)", "lat": 34.0837, "lng": 74.7973, "type": "lake", "label": "Srinagar" },
        { "name": "Gulmarg", "lat": 34.0484, "lng": 74.3805, "type": "hill_station", "label": "Gulmarg" },
        { "name": "Pahalgam", "lat": 34.0161, "lng": 75.3150, "type": "valley", "label": "Pahalgam" },
        { "name": "Sonamarg", "lat": 34.3000, "lng": 75.2900, "type": "valley", "label": "Sonamarg" },
        { "name": "Vaishno Devi", "lat": 33.0292, "lng": 74.9490, "type": "temple", "label": "Vaishno Devi" },
        { "name": "Patnitop", "lat": 33.0866, "lng": 75.3263, "type": "hill_station", "label": "Patnitop" },
        { "name": "Betaab Valley", "lat": 34.0300, "lng": 75.3400, "type": "valley", "label": "Betaab Valley" },
        { "name": "Jammu", "lat": 32.7266, "lng": 74.8570, "type": "city", "label": "Jammu" }
      ],
      "rivers": [
        { "name": "Jhelum", "path": [[34.3, 75.3], [34.1, 74.8], [33.5, 74.5]] },
        { "name": "Chenab", "path": [[33.5, 76.0], [33.0, 75.5], [32.5, 75.0]] },
        { "name": "Tawi", "path": [[33.0, 75.5], [32.8, 75.0], [32.7, 74.9]] }
      ]
    },
    {
      "name": "Ladakh",
      "short_code": "LA",
      "region": "north",
      "tagline": "Oxygen thins, clarity sharpens",
      "boundary": [
        [36.0, 76.0], [35.5, 77.0], [35.0, 77.5], [34.5, 78.0], [34.0, 78.0],
        [33.5, 77.5], [33.0, 77.0], [32.5, 77.0], [32.5, 77.5], [33.0, 78.0],
        [33.5, 78.5], [34.0, 78.5], [34.5, 78.0], [35.0, 78.0], [35.5, 77.5],
        [36.0, 77.0], [36.0, 76.5], [36.0, 76.0]
      ],
      "neighbors": [
        { "name": "Jammu & Kashmir", "position": [34.0, 76.0] },
        { "name": "Himachal Pradesh", "position": [32.5, 77.5] },
        { "name": "Tibet (China)", "position": [35.5, 78.5] },
        { "name": "Pakistan", "position": [36.5, 76.0] }
      ],
      "landmarks": [
        { "name": "Leh", "lat": 34.1526, "lng": 77.5771, "type": "city", "label": "Leh" },
        { "name": "Pangong Tso", "lat": 33.7595, "lng": 78.6650, "type": "lake", "label": "Pangong" },
        { "name": "Nubra Valley", "lat": 34.6800, "lng": 77.5700, "type": "valley", "label": "Nubra" },
        { "name": "Khardung La", "lat": 34.2819, "lng": 77.6017, "type": "pass", "label": "Khardung La" },
        { "name": "Thiksey Monastery", "lat": 34.0547, "lng": 77.6656, "type": "monastery", "label": "Thiksey" },
        { "name": "Hemis Monastery", "lat": 33.9147, "lng": 77.7139, "type": "monastery", "label": "Hemis" },
        { "name": "Tso Moriri", "lat": 32.9000, "lng": 78.3000, "type": "lake", "label": "Tso Moriri" },
        { "name": "Zanskar Valley", "lat": 33.5000, "lng": 76.8500, "type": "valley", "label": "Zanskar" }
      ],
      "rivers": [
        { "name": "Indus", "path": [[34.5, 77.0], [34.2, 77.5], [33.8, 78.0], [33.5, 78.5]] },
        { "name": "Zanskar River", "path": [[33.5, 76.8], [33.8, 77.0], [34.0, 77.3]] },
        { "name": "Shyok", "path": [[35.0, 77.5], [34.8, 77.5], [34.5, 77.6]] }
      ]
    },
    {
      "name": "Lakshadweep",
      "short_code": "LD",
      "region": "south",
      "tagline": "Thirty-six islands, zero traffic lights",
      "boundary": [
        [12.5, 71.5], [12.0, 72.0], [11.5, 72.5], [11.0, 72.5], [10.5, 72.5],
        [10.0, 72.5], [10.0, 72.0], [10.5, 71.5], [11.0, 71.5], [11.5, 71.5],
        [12.0, 71.5], [12.5, 71.5]
      ],
      "neighbors": [
        { "name": "Arabian Sea", "position": [11.0, 71.0] },
        { "name": "Kerala", "position": [10.0, 73.5] },
        { "name": "Maldives", "position": [9.5, 72.0] }
      ],
      "landmarks": [
        { "name": "Kavaratti", "lat": 10.5626, "lng": 72.6369, "type": "island", "label": "Kavaratti" },
        { "name": "Agatti Island", "lat": 10.8565, "lng": 72.1862, "type": "island", "label": "Agatti" },
        { "name": "Bangaram Island", "lat": 10.9400, "lng": 72.2850, "type": "island", "label": "Bangaram" },
        { "name": "Minicoy Island", "lat": 8.2828, "lng": 73.0433, "type": "island", "label": "Minicoy" },
        { "name": "Kalpeni Island", "lat": 10.0792, "lng": 73.6424, "type": "island", "label": "Kalpeni" },
        { "name": "Kadmat Island", "lat": 11.2267, "lng": 72.7769, "type": "island", "label": "Kadmat" }
      ],
      "rivers": []
    },
    {
      "name": "Puducherry",
      "short_code": "PY",
      "region": "south",
      "tagline": "French grid, Tamil pulse",
      "boundary": [
        [12.05, 79.78], [12.02, 79.85], [11.95, 79.86], [11.90, 79.84],
        [11.88, 79.80], [11.90, 79.76], [11.95, 79.75], [12.00, 79.76],
        [12.05, 79.78]
      ],
      "neighbors": [
        { "name": "Tamil Nadu", "position": [11.85, 79.80] }
      ],
      "landmarks": [
        { "name": "Promenade Beach", "lat": 11.9340, "lng": 79.8360, "type": "beach", "label": "Promenade" },
        { "name": "Auroville", "lat": 12.0062, "lng": 79.8107, "type": "monument", "label": "Auroville" },
        { "name": "Sri Aurobindo Ashram", "lat": 11.9330, "lng": 79.8340, "type": "monument", "label": "Aurobindo Ashram" },
        { "name": "French Quarter", "lat": 11.9350, "lng": 79.8350, "type": "city", "label": "French Quarter" },
        { "name": "Botanical Garden", "lat": 11.9240, "lng": 79.8250, "type": "monument", "label": "Botanical Garden" },
        { "name": "Paradise Beach", "lat": 11.9000, "lng": 79.8400, "type": "beach", "label": "Paradise Beach" }
      ],
      "rivers": []
    }
  ]
}
